no,display,category,name,address,phone1,phone2,memo1,memo2,lat,lng
1,1,,񂺂񎙓,ΐ쌧֓sOSS?QO,(0768)0768-42-3166,,֓s,,37.288661,136.765627
2,1,,֓sZ^[,ΐ쌧֓s͈䒬2-287-1,(0768)0768-22-8031,,֓s,֓sӂꂠNZ^[,37.394134,136.901226
3,1,},֓s},ΐ쌧֓s͈䒬QO?P?P,(0768)0768-22-2926,,,,37.388555,136.905931
4,1,},֓sO},ΐ쌧֓sOoQ?Q,(0768)0768-42-0129,,,,37.288614,136.769343
5,1,,{^,ΐ쌧֓s͈䒬PS,0768-23-1145,,,,37.392746,136.907606
6,1,,PR,ΐ쌧֓sP,0768-22-6588,,,,37.4003,136.89655
7,1,,֓,ΐ쌧֓s͈䒬20-1-1i2Kj,0768-22-2226,0768-23-8239,,,37.388555,136.905931
8,1,,剮,ΐ쌧֓sɐۊ_0768-22-1,0768-22-2236,0768-22-2236,,,37.381204,136.885942
9,1,,͌c,ΐ쌧֓se60-1,0768-22-2235,0768-22-2235,,,37.357283,136.908341
10,1,,,ΐ쌧֓s[65-33-1,0768-22-2237,0768-22-2237,,,37.410582,136.969667
11,1,,ی,ΐ쌧֓s򒬃zT\201-3,0768-36-2001,0768-36-2034,,,37.375189,136.803046
12,1,,O,ΐ쌧֓sO䒬2-12-1,0768-26-1211,0768-26-1247,,,37.315432,136.902699
13,1,,u,ΐ쌧֓s32-36,0768-34-1001,0768-34-1230,,,37.430279,137.034114
14,1,,,ΐ쌧֓s쒬쌴c22-1,0768-32-0316,0768-32-1231,,,37.423336,137.088106
15,1,,`,ΐ쌧֓s֓蒬1-211-4,0768-22-1391,0768-22-1391,,,37.403272,136.899898
16,1,,P,ΐ쌧֓sPΉY83-1,0768-22-7620,0768-22-7640,,,37.3985,136.896993
17,1,,n,ΐ쌧֓sOnc60,0768-45-1833,0768-45-1833,,,37.231822,136.708634
18,1,,݌,ΐ쌧֓sOi17,0768-43-1063,0768-43-1063,,,37.253950739826806,136.73283431258392
19,1,,,ΐ쌧֓sOr45,0768-43-1062,0768-43-1062,,,37.278903,136.735765
20,1,,,ΐ쌧֓sO7-175,0768-43-1061,0768-43-1061,,,37.288391,136.745284
21,1,,O,ΐ쌧֓sOo6-92-2,0768-42-0916,0768-42-1906,,,37.287803,136.767804
22,1,,{,ΐ쌧֓sO񖔐4-4-1,0768-42-0636,0768-42-0636,,,37.284803,136.826977
23,1,,Y,ΐ쌧֓sOY8-58,0768-42-0558,0768-42-0558,,,37.305719,136.797698
24,1,,Y,ΐ쌧֓sOLR12-50,0768-46-2375,0768-46-2375,,,37.345382,136.752941
